,City,Country,Lat,Lng,Max Temp,Humidity,Cloudiness,Wind Speed,Current Description
0,Male,MV,4.1748,73.5089,84.15,79,20,17.27,few clouds
1,Punta Arenas,CL,-53.15,-70.9167,48.31,66,40,31.07,light intensity shower rain
2,Bluff,NZ,-46.6,168.3333,44.8,85,100,21.97,light rain
3,Vaini,TO,-21.2,-175.2,74.03,79,97,21.16,overcast clouds
4,Busselton,AU,-33.65,115.3333,45.09,60,92,4.09,overcast clouds
5,Merritt Island,US,28.5392,-80.672,88.27,55,40,6.91,scattered clouds
6,Nouadhibou,MR,20.931,-17.0347,78.78,69,3,18.41,clear sky
7,Sungaipenuh,ID,-2.0833,101.3833,65.44,97,100,0.96,overcast clouds
8,Maragogi,BR,-9.0122,-35.2225,81.28,69,24,11.99,few clouds
9,Hilo,US,19.7297,-155.09,71.62,78,40,6.91,light rain
10,Zhigansk,RU,66.7697,123.3711,25.81,85,30,6.24,scattered clouds
11,Mabaruma,GY,8.2,-59.7833,79.84,88,100,4.03,overcast clouds
12,Nakamura,JP,32.9833,132.9333,65.25,90,0,2.8,clear sky
13,Tasiilaq,GL,65.6145,-37.6368,41.16,53,0,7.54,clear sky
14,Jamestown,US,42.097,-79.2353,69.3,100,90,8.05,overcast clouds
15,Severo-Kurilsk,RU,50.6789,156.125,47.57,85,69,40.11,broken clouds
16,Yenagoa,NG,4.9247,6.2642,77.81,87,100,6.29,moderate rain
17,Cidreira,BR,-30.1811,-50.2056,65.7,89,100,11.01,light rain
18,Yumen,CN,40.2833,97.2,44.47,34,98,10.36,overcast clouds
19,Khuzdar,PK,27.7384,66.6434,79.7,21,8,8.3,clear sky
20,Luderitz,NA,-26.6481,15.1594,63.95,46,0,28.77,clear sky
21,Port Arthur,CN,38.8,121.2667,71.82,97,100,7.43,moderate rain
22,Saint-Philippe,RE,-21.3585,55.7679,74.79,81,33,16.44,scattered clouds
23,Vestmannaeyjar,IS,63.4427,-20.2734,54.59,47,0,4.61,clear sky
24,Rusera,IN,25.75,86.0333,74.55,91,100,2.93,overcast clouds
25,Bonavista,CA,48.6499,-53.1147,61.12,88,93,8.72,overcast clouds
26,Coihaique,CL,-45.5752,-72.0662,50.61,61,90,6.91,light intensity shower rain
27,Ushuaia,AR,-54.8,-68.3,51.46,43,75,17.27,light rain
28,Albany,US,42.6001,-73.9662,67.32,86,100,0.81,overcast clouds
29,Tura,IN,25.5198,90.2201,72.5,97,30,4.29,moderate rain
30,Upernavik,GL,72.7868,-56.1549,33.49,61,100,2.42,overcast clouds
31,Constitucion,CL,-35.3333,-72.4167,58.77,50,0,18.86,clear sky
32,Viedma,AR,-40.8135,-62.9967,61.21,29,1,16.13,clear sky
33,Loiza,PR,18.4313,-65.8802,91.38,61,75,16.11,haze
34,Vila,PT,42.0304,-8.1588,53.33,64,62,7.78,broken clouds
35,Ourossogui,SN,15.6064,-13.3211,98.6,39,0,4.61,clear sky
36,Mahebourg,MU,-20.4081,57.7,72.25,88,75,12.66,light rain
37,Shache,CN,38.4167,77.2406,63.23,23,90,18.84,overcast clouds
38,Torbay,CA,47.6666,-52.7314,61.75,75,75,4.61,broken clouds
39,Kodiak,US,57.79,-152.4072,36.91,65,1,13.8,clear sky
40,Longyearbyen,SJ,78.2186,15.6401,39.04,87,75,3.44,light rain
41,Birjand,IR,32.8663,59.2211,64.87,19,0,6.91,clear sky
42,Chuy,UY,-33.6971,-53.4616,62.42,61,97,11.54,overcast clouds
43,Tuktoyaktuk,CA,69.4541,-133.0374,33.8,100,90,17.27,mist
44,Rikitea,PF,-23.1203,-134.9692,72.97,65,6,16.55,clear sky
45,Kangaatsiaq,GL,68.3065,-53.4641,30.45,64,69,9.98,broken clouds
46,Tiarei,PF,-17.5333,-149.3333,75.22,76,5,8.12,light rain
47,Sioux Lookout,CA,50.1001,-91.917,59.07,72,40,4.61,scattered clouds
48,Namibe,AO,-15.1961,12.1522,63.55,76,5,8.48,clear sky
49,Qaanaaq,GL,77.484,-69.3632,31.89,97,100,9.22,light snow
50,Erenhot,CN,43.6475,111.9767,45.91,41,22,5.64,few clouds
51,Pevek,RU,69.7008,170.3133,22.33,90,98,9.35,overcast clouds
52,Nanchang,CN,28.6833,115.8833,79.74,52,0,5.14,light rain
53,Cape Town,ZA,-33.9258,18.4232,60.1,45,20,16.11,few clouds
54,Itarema,BR,-2.9248,-39.9167,87.66,58,1,20.96,clear sky
55,Mataura,NZ,-46.1927,168.8643,44.47,93,100,6.22,moderate rain
56,Guerrero Negro,MX,27.9769,-114.0611,79.99,53,55,3.27,broken clouds
57,New Norfolk,AU,-42.7826,147.0587,54.75,83,68,1.43,broken clouds
58,Port Blair,IN,11.6667,92.75,80.31,83,55,6.24,broken clouds
59,Provideniya,RU,64.3833,-173.3,26.26,76,90,2.13,overcast clouds
60,Hami,CN,42.8,93.45,51.46,30,18,5.64,few clouds
61,High Level,CA,58.5169,-117.136,37.51,75,40,3.44,scattered clouds
62,Atuona,PF,-9.8,-139.0333,77.47,72,70,17.45,broken clouds
63,Emilio Carranza,MX,19.9711,-96.6114,83.88,66,25,10.18,scattered clouds
64,Sept-Iles,CA,50.2001,-66.3821,52.32,62,75,5.75,broken clouds
65,Leningradskiy,RU,69.3833,178.4167,15.24,84,76,4.9,broken clouds
66,Baykit,RU,61.67,96.37,35.31,92,99,1.43,overcast clouds
67,Hermanus,ZA,-34.4187,19.2345,58.89,70,47,9.73,scattered clouds
68,Benguela,AO,-12.5763,13.4055,73.09,76,20,6.91,few clouds
69,Mar Del Plata,AR,-38.0023,-57.5575,55.42,55,75,20.0,broken clouds
70,Hambantota,LK,6.1241,81.1185,80.85,80,11,13.91,few clouds
71,Aksarka,RU,66.5606,67.7975,29.75,75,21,5.53,few clouds
72,Vila Velha,BR,-20.3297,-40.2925,87.75,55,75,16.11,broken clouds
73,Talnakh,RU,69.4865,88.3972,15.17,96,74,1.14,broken clouds
74,Hobart,AU,-42.8794,147.3294,55.11,97,90,0.0,overcast clouds
75,Carutapera,BR,-1.195,-46.02,89.04,52,54,12.77,broken clouds
76,Mindelo,CV,16.8901,-24.9804,87.35,58,40,20.71,scattered clouds
77,Sitka,US,57.0531,-135.33,40.89,81,90,9.22,light rain
78,Bethel,US,41.3712,-73.414,76.5,69,1,1.01,clear sky
79,Castro,BR,-24.7911,-50.0119,64.85,95,100,7.94,heavy intensity rain
80,Gushikawa,JP,26.3544,127.8686,81.63,65,1,12.66,clear sky
81,Isfana,KG,39.8386,69.5306,45.16,49,74,2.01,broken clouds
82,Nizhniy Odes,RU,63.6445,54.856,32.31,74,43,1.92,scattered clouds
83,Kavieng,PG,-2.5744,150.7967,81.03,75,20,5.53,few clouds
84,Nikolskoye,RU,59.7035,30.7861,52.88,83,2,7.4,clear sky
85,Pirovskoye,RU,57.6267,92.2658,28.99,88,45,3.83,scattered clouds
86,Avarua,CK,-21.2078,-159.775,73.45,78,40,9.22,scattered clouds
87,Lagoa,PT,39.05,-27.9833,70.95,90,98,11.21,overcast clouds
88,Holbeach,GB,52.804,0.0144,61.0,67,31,10.0,scattered clouds
89,Praia,CV,14.9215,-23.5087,90.14,55,20,16.11,few clouds
90,Acevedo,CO,1.8361,-75.855,80.1,58,19,4.07,few clouds
91,Tulum,MX,20.2167,-87.4667,86.99,79,40,6.87,scattered clouds
92,Airai,TL,-8.9266,125.4092,59.58,83,54,1.16,broken clouds
93,Broome,US,42.2506,-75.833,64.98,76,90,4.61,moderate rain
94,Pechenga,RU,69.5259,31.1703,47.26,81,47,19.55,scattered clouds
95,Chake Chake,TZ,-5.2459,39.7666,74.8,77,97,8.46,overcast clouds
96,Udala,ES,43.0778,-2.5125,58.48,90,100,1.86,overcast clouds
97,Yulara,AU,-25.2406,130.9889,58.84,33,0,6.91,clear sky
98,College,US,64.8569,-147.8028,34.59,95,90,5.75,mist
99,Brits,ZA,-25.6347,27.7802,76.32,12,0,6.13,clear sky
100,Ruteng,ID,-8.6136,120.4721,60.69,91,44,2.21,scattered clouds
101,Dingle,PH,10.9995,122.6711,75.74,95,100,5.64,heavy intensity rain
102,Makakilo City,US,21.3469,-158.0858,74.28,79,1,4.61,clear sky
103,Uruzgan,AF,32.8333,66.0,62.6,27,0,2.84,clear sky
104,Kyra,RU,49.5776,111.9753,32.5,90,90,4.7,overcast clouds
105,Port Hedland,AU,-20.3167,118.5667,66.25,72,0,10.36,clear sky
106,Celestun,MX,20.8667,-90.4,87.93,54,63,3.69,broken clouds
107,Les Cayes,HT,18.2,-73.75,81.14,76,100,13.49,overcast clouds
108,Vuktyl,RU,63.8567,57.3094,31.5,83,49,0.78,scattered clouds
109,Znamenskoye,RU,57.1281,73.8282,29.3,97,95,4.63,overcast clouds
110,Dikson,RU,73.5069,80.5464,34.63,98,100,23.15,light rain
111,Georgetown,MY,5.4112,100.3354,82.89,86,20,1.01,few clouds
112,Bredasdorp,ZA,-34.5322,20.0403,56.52,67,50,9.22,scattered clouds
113,Salalah,OM,17.0151,54.0924,82.49,83,75,6.91,broken clouds
114,Yellowknife,CA,62.456,-114.3525,49.41,57,40,9.22,scattered clouds
115,Lukovetskiy,RU,64.2956,41.9211,48.18,90,100,5.61,light rain
116,Kaduy,RU,59.2,37.15,44.64,90,79,5.03,broken clouds
117,Barrow,US,71.2906,-156.7887,28.42,86,90,11.5,light snow
118,Fairbanks,US,64.8378,-147.7164,34.61,94,90,4.61,light snow
119,Kudahuvadhoo,MV,2.6708,72.8944,83.16,76,6,15.95,clear sky
120,Hobyo,SO,5.3505,48.5268,79.29,84,44,20.65,scattered clouds
121,Arraial Do Cabo,BR,-22.9661,-42.0278,82.36,88,75,18.41,broken clouds
122,Butaritari,KI,3.0707,172.7902,82.62,65,96,15.08,overcast clouds
123,Plaridel,PH,14.8872,120.8572,82.38,90,98,6.93,overcast clouds
124,Meulaboh,ID,4.1363,96.1285,76.15,83,3,4.0,clear sky
125,Najran,SA,17.4924,44.1277,88.45,29,82,5.03,broken clouds
126,Esperance,AU,-33.8667,121.9,44.44,67,10,7.67,clear sky
127,Kollam,IN,8.8833,76.6,80.47,85,100,3.18,overcast clouds
128,Manchester,GB,53.4809,-2.2374,58.98,76,40,1.99,scattered clouds
129,Zheleznodorozhnyy,RU,55.7503,38.0042,44.37,65,100,4.29,overcast clouds
130,Estevan,CA,49.1334,-102.9842,70.14,27,1,11.5,clear sky
131,Warburton,PK,31.55,73.8333,88.0,59,5,7.74,clear sky
132,Biak,ID,-0.9131,122.8766,75.56,82,80,5.99,broken clouds
133,Saint-Georges,GD,12.0564,-61.7485,89.28,66,40,23.02,scattered clouds
134,Markha,RU,62.1053,129.7269,26.56,86,0,6.71,clear sky
135,Lujiang,CN,31.2581,117.2817,82.45,73,5,4.54,clear sky
136,Carnarvon,AU,-24.8667,113.6333,64.47,77,1,16.11,clear sky
137,Isangel,VU,-19.55,169.2667,74.32,90,22,5.5,few clouds
138,Zhaoyuan,CN,37.3592,120.3964,77.79,97,100,5.93,heavy intensity rain
139,Kambove,CD,-10.8764,26.5969,67.28,78,74,3.8,light rain
140,Covilha,PT,40.286,-7.504,66.34,45,7,9.95,clear sky
141,Kamenz,DE,51.268,14.0937,65.44,54,100,12.48,overcast clouds
142,San Patricio,US,28.017,-97.5169,84.92,62,64,7.25,broken clouds
143,Nyamuswa,TZ,-1.9,34.0167,70.66,68,100,4.32,overcast clouds
144,Kapoeta,SS,4.7717,33.5903,79.61,62,63,7.7,broken clouds
145,Bridlington,GB,54.0831,-0.1919,58.89,70,14,19.26,few clouds
146,Pumiao,CN,22.75,108.4833,79.2,84,2,4.43,light rain
147,Camacha,PT,33.0833,-16.3333,74.16,78,40,16.11,scattered clouds
148,Sechura,PE,-5.5569,-80.8222,76.08,56,27,10.8,scattered clouds
149,Bethanien,NA,-26.502,17.1583,70.88,17,0,10.09,clear sky
150,Maputo,MZ,-25.9653,32.5892,63.23,88,90,8.01,overcast clouds
151,Northam,GB,51.0333,-4.2167,60.42,79,39,18.16,scattered clouds
152,Elban,RU,50.1018,136.5094,38.71,90,70,4.32,broken clouds
153,Olinda,BR,-8.0089,-34.8553,83.93,61,40,6.91,scattered clouds
154,Ahuimanu,US,21.4447,-157.8378,75.45,82,75,3.44,broken clouds
155,Port Alfred,ZA,-33.5906,26.891,58.06,68,36,11.74,scattered clouds
156,Flin Flon,CA,54.7682,-101.865,57.04,58,75,3.44,smoke
157,Sur,OM,22.5667,59.5289,83.44,77,100,20.02,overcast clouds
158,Karad,IN,17.2833,74.2,76.48,81,81,3.06,broken clouds
159,Khatanga,RU,71.9667,102.5,16.68,95,89,9.46,overcast clouds
160,Saint-Pierre,RE,-21.3393,55.4781,74.88,73,75,4.61,broken clouds
161,Yar-Sale,RU,66.8333,70.8333,30.38,77,89,6.33,overcast clouds
162,Talaya,RU,61.3833,152.75,24.49,95,100,6.91,overcast clouds
163,Nehe,CN,48.4833,124.8333,36.73,79,1,6.42,clear sky
164,Puerto Ayora,EC,-0.7393,-90.3518,72.55,77,53,11.34,broken clouds
165,Lebu,CL,-37.6167,-73.65,53.15,67,26,22.06,scattered clouds
166,Bac Lieu,VN,9.285,105.7244,78.71,86,100,5.91,overcast clouds
167,Kaitangata,NZ,-46.2817,169.8464,49.93,82,100,12.82,moderate rain
168,Katsuura,JP,35.1333,140.3,70.11,80,2,7.45,clear sky
169,Naro-Fominsk,RU,55.3875,36.7331,44.22,72,100,4.34,light rain
170,Dalhousie,IN,32.5333,75.9833,56.16,83,2,6.04,clear sky
171,Iquique,CL,-20.2208,-70.1431,62.64,65,2,7.02,clear sky
172,Neya,RU,58.2972,43.8681,45.01,87,100,2.08,overcast clouds
173,Dicabisagan,PH,17.0818,122.4157,78.17,90,100,5.35,overcast clouds
174,Orlik,RU,52.5178,99.825,19.33,83,55,2.44,broken clouds
175,Shahpur,IN,16.7,76.8333,82.35,68,92,3.36,overcast clouds
176,Prince Rupert,CA,54.3161,-130.3201,47.89,75,90,10.36,light rain
177,Coquimbo,CL,-29.9533,-71.3436,60.53,63,0,13.8,clear sky
178,Sorkjosen,NO,69.8,20.9333,53.6,54,40,35.68,scattered clouds
179,Mpongwe,ZM,-13.5091,28.155,71.04,68,97,5.88,light rain
180,Ancud,CL,-41.8697,-73.8203,51.33,67,56,11.65,broken clouds
181,Ekimchan,RU,53.0667,132.9667,27.55,88,9,1.5,clear sky
182,Sao Felix Do Xingu,BR,-6.6447,-51.995,94.55,37,97,5.66,overcast clouds
183,Lodwar,KE,3.1191,35.5973,92.5,28,6,5.64,clear sky
184,Zalesovo,RU,53.9939,84.7431,34.18,96,100,7.45,light rain
185,Chokurdakh,RU,70.6333,147.9167,21.85,96,100,9.35,overcast clouds
186,Beringovskiy,RU,63.05,179.3167,37.96,99,100,1.1,overcast clouds
187,Nuqui,CO,5.7125,-77.2708,82.74,77,57,6.73,light rain
188,Hirado,JP,33.3597,129.5531,72.36,69,1,8.41,clear sky
189,Condega,NI,13.365,-86.3985,76.39,55,15,6.13,few clouds
190,Lorengau,PG,-2.0226,147.2712,79.18,80,5,3.51,clear sky
191,Faya,SA,18.3851,42.4509,68.52,56,99,4.45,overcast clouds
192,Shimoda,JP,34.6667,138.95,68.11,83,28,1.19,scattered clouds
193,Kencong,ID,-8.2833,113.3667,76.3,81,94,1.63,overcast clouds
194,Inuvik,CA,68.3499,-133.7218,34.66,100,90,9.22,light intensity drizzle
195,Starosubkhangulovo,RU,53.1031,57.4423,41.29,63,98,4.85,overcast clouds
196,Nemuro,JP,43.3236,145.575,61.2,81,25,30.96,scattered clouds
197,Mountain Home,US,43.133,-115.6912,66.11,38,1,14.97,clear sky
198,Santa Cruz,BO,-17.8,-63.1667,90.86,58,40,14.97,smoke
199,Gasa,PS,31.5,34.4667,78.78,66,34,10.89,scattered clouds
200,Sisimiut,GL,66.9395,-53.6735,37.99,66,94,4.83,overcast clouds
201,Omboue,GA,-1.5746,9.2618,77.32,83,100,10.76,overcast clouds
202,Richards Bay,ZA,-28.783,32.0377,60.6,82,100,5.26,light rain
203,Teguldet,RU,57.3064,88.1667,32.63,94,100,3.8,overcast clouds
204,Puerto Leguizamo,CO,-0.1934,-74.7819,93.97,43,28,5.08,scattered clouds
205,Pilar,BR,-9.5972,-35.9567,85.93,53,15,12.39,few clouds
206,Selma,US,36.5708,-119.6121,78.6,39,1,5.75,haze
207,Rameshki,RU,57.3439,36.0453,41.47,81,83,3.83,broken clouds
208,Pisco,PE,-13.7,-76.2167,65.01,77,90,6.91,mist
209,Raudeberg,NO,61.9875,5.1352,60.58,58,100,8.99,overcast clouds
210,Sao Filipe,CV,14.8961,-24.4956,79.95,77,66,6.71,broken clouds
211,Itaberaba,BR,-12.5275,-40.3069,93.06,30,42,9.89,scattered clouds
212,Samarai,PG,-10.6167,150.6667,79.68,83,97,4.54,overcast clouds
213,Kavaratti,IN,10.5669,72.642,81.54,80,100,10.04,overcast clouds
214,Rokytnice Nad Jizerou,CZ,50.7256,15.4336,59.61,86,54,3.8,broken clouds
215,Hryshkivtsi,UA,49.9353,28.6038,49.82,52,41,8.75,scattered clouds
216,Santo Tomas,PH,14.1079,121.1414,80.85,94,89,4.09,overcast clouds
217,Abonnema,NG,4.7084,6.7931,80.15,80,92,7.99,light rain
218,Batagay,RU,67.6333,134.6333,23.67,79,69,1.03,broken clouds
219,Bandarbeyla,SO,9.4942,50.8122,79.07,83,53,21.63,broken clouds
220,Upington,ZA,-28.4478,21.2561,71.98,16,0,3.44,clear sky
221,Sal Rei,CV,16.1833,-22.9167,88.0,66,20,14.97,few clouds
222,Vesyegonsk,RU,58.664,37.2604,42.33,88,15,4.65,few clouds
223,Paamiut,GL,61.994,-49.6678,40.98,64,4,9.08,clear sky
224,Haines Junction,CA,60.7522,-137.5108,31.95,93,100,2.3,light snow
225,Pachino,IT,36.7186,15.0907,73.44,67,5,7.23,clear sky
226,Kashi,CN,39.4547,75.9797,60.01,33,90,11.18,dust
227,Posse,BR,-14.0931,-46.3694,98.76,16,32,4.74,scattered clouds
228,Bilibino,RU,68.0546,166.4372,16.34,97,96,3.27,overcast clouds
229,Cienaga De Oro,CO,8.8744,-75.6203,87.35,69,69,6.71,broken clouds
230,Morondava,MG,-20.2833,44.2833,77.74,79,2,14.56,clear sky
231,Sampit,ID,-2.5333,112.95,73.81,97,98,1.3,overcast clouds
232,Ilulissat,GL,69.2167,-51.1,30.22,59,83,5.75,broken clouds
233,Vestmanna,FO,62.1564,-7.1664,47.32,93,75,32.21,broken clouds
234,Fairlie,GB,55.756,-4.8556,55.11,85,54,7.0,broken clouds
235,Port Lincoln,AU,-34.7333,135.8667,53.38,60,6,24.16,clear sky
236,Saskylakh,RU,71.9167,114.0833,13.77,94,59,8.37,broken clouds
237,Oranjemund,NA,-28.55,16.4333,56.17,68,0,27.29,clear sky
238,East London,ZA,-33.0153,27.9116,59.94,67,20,11.5,light rain
239,Komsomolskiy,UZ,40.4272,71.7189,58.42,77,75,2.3,moderate rain
240,Jiujiang,CN,29.7333,115.9833,81.68,60,0,4.83,clear sky
241,Kapaa,US,22.0752,-159.319,73.72,85,90,4.0,light rain
242,Caravelas,BR,-17.7125,-39.2481,83.73,62,3,13.71,clear sky
243,Tagburos,PH,9.8286,118.7319,78.53,86,95,4.99,overcast clouds
244,Temryuk,RU,45.2722,37.3811,55.62,68,100,15.41,overcast clouds
245,Zambezi,ZM,-13.5432,23.1047,73.76,60,94,7.09,light rain
246,Dakar,SN,14.6937,-17.4441,88.68,70,0,2.3,clear sky
247,Goya,AR,-29.14,-59.2626,68.97,24,93,11.88,overcast clouds
248,Gunnedah,AU,-30.9833,150.25,56.82,70,27,2.64,scattered clouds
249,Lata,PT,40.1629,-8.3327,66.34,56,2,11.39,clear sky
250,Half Moon Bay,US,37.4636,-122.4286,82.51,65,20,3.44,few clouds
251,Ostrovnoy,RU,68.0531,39.5131,46.02,86,48,18.97,scattered clouds
252,Joshimath,IN,30.5667,79.5667,65.19,88,75,0.89,broken clouds
253,Ergani,TR,38.2653,39.7621,74.12,53,1,8.59,clear sky
254,Verkhnechusovskiye Gorodki,RU,58.1671,57.1086,37.15,73,100,2.19,overcast clouds
255,Rocha,UY,-34.4833,-54.3333,59.07,52,79,15.14,broken clouds
256,Corpus Christi,US,27.8006,-97.3964,86.4,81,75,5.01,broken clouds
257,Port Elizabeth,ZA,-33.918,25.5701,58.1,67,20,13.8,few clouds
258,Mecca,SA,21.4267,39.8261,89.01,39,100,7.87,overcast clouds
259,Cairns,AU,-16.9167,145.7667,73.06,96,94,0.0,overcast clouds
260,Karratha,AU,-20.7377,116.8463,71.53,62,0,12.41,clear sky
261,Benemerito De Las Americas,MX,16.5167,-90.6439,89.56,50,64,2.28,broken clouds
262,Novoagansk,RU,61.9449,76.6625,29.01,92,82,8.48,broken clouds
263,Podgornoye,RU,51.735,39.1496,48.42,76,0,4.47,clear sky
264,Nome,US,64.5011,-165.4064,24.87,74,1,4.61,clear sky
265,Tall Kayf,TR,37.0833,41.0667,79.74,30,0,11.74,clear sky
266,Sijunjung,ID,-0.6876,100.9537,72.82,94,98,1.63,overcast clouds
267,Ahipara,NZ,-35.1667,173.1667,61.27,97,100,11.79,overcast clouds
268,Lusambo,CD,-4.9667,23.45,71.78,95,99,2.35,overcast clouds
269,Hithadhoo,MV,-0.6,73.0833,83.79,74,77,15.3,broken clouds
270,Clyde River,CA,70.4692,-68.5914,39.43,87,90,5.75,overcast clouds
271,Victoria,HK,22.2855,114.1577,85.32,78,52,1.01,light rain
272,Klaksvik,FO,62.2266,-6.589,49.12,88,100,31.36,overcast clouds
273,Alamosa,US,37.4695,-105.87,58.66,66,1,3.44,clear sky
274,Skagen,DK,57.7209,10.5839,58.26,94,100,21.25,light rain
275,West Bay,KY,19.3667,-81.4167,89.01,72,20,3.0,few clouds
276,Port Hardy,CA,50.6996,-127.4199,50.0,93,75,4.61,broken clouds
277,Gerede,TR,40.8008,32.1969,42.66,98,41,3.02,scattered clouds
278,Dubbo,AU,-32.25,148.6167,55.53,76,30,1.14,scattered clouds
279,Weinan,CN,34.5036,109.5089,64.09,75,99,9.62,light rain
280,Antigonish,CA,45.6169,-61.9986,60.15,73,40,1.99,scattered clouds
281,Buala,SB,-8.145,159.5921,78.87,84,41,2.98,scattered clouds
282,Cayenne,GF,4.9333,-52.3333,91.44,72,40,5.99,scattered clouds
283,Pakokku,MM,21.3333,95.1,80.33,82,17,6.02,few clouds
284,Vila Franca Do Campo,PT,37.7167,-25.4333,77.2,72,90,3.58,overcast clouds
285,Manjacaze,MZ,-24.7117,33.8828,67.41,89,100,13.42,light rain
286,Chandbali,IN,20.7833,86.7667,79.57,86,46,7.54,scattered clouds
287,Aklera,IN,24.4167,76.5667,80.62,77,63,3.91,broken clouds
288,Iqaluit,CA,63.7506,-68.5145,38.93,75,75,3.44,broken clouds
289,Rawlins,US,41.7911,-107.2387,59.43,36,1,6.91,clear sky
290,Kahului,US,20.8947,-156.47,77.85,82,20,5.75,few clouds
291,Vao,NC,-22.6667,167.4833,71.73,89,1,3.58,clear sky
292,Poum,NC,-20.2333,164.0167,74.64,86,50,16.2,scattered clouds
293,Magadan,RU,59.5667,150.8,37.04,72,100,9.62,overcast clouds
294,Honghu,CN,29.8206,113.4621,81.82,65,2,6.17,clear sky
295,Jalalabad,AF,34.4265,70.4515,84.27,46,0,1.01,clear sky
296,Thompson,CA,55.7435,-97.8558,50.16,100,40,3.44,scattered clouds
297,Kysyl-Syr,RU,63.8986,122.7617,27.23,73,17,2.68,few clouds
298,Portland,US,45.5234,-122.6762,61.45,77,75,1.99,broken clouds
299,Weiser,US,44.251,-116.9693,52.0,25,35,2.04,scattered clouds
300,Albacete,ES,38.8333,-2.0,59.81,94,75,8.05,broken clouds
301,Tuburan,PH,6.6439,122.2736,80.64,83,100,9.75,moderate rain
302,Tianpeng,CN,30.9866,103.9393,79.27,89,87,8.1,overcast clouds
303,Takaka,NZ,-40.85,172.8,53.98,95,100,6.13,overcast clouds
304,Hofn,IS,64.2539,-15.2082,48.22,76,90,11.5,overcast clouds
305,Ust-Maya,RU,60.4167,134.5333,28.99,89,88,4.9,overcast clouds
306,Ndago,TZ,-4.6,34.35,82.71,24,99,5.5,overcast clouds
307,Ilula,TZ,-7.6766,36.0366,73.94,52,11,6.51,few clouds
308,Townsville,AU,-19.25,146.8,76.08,88,90,5.75,overcast clouds
309,Tuatapere,NZ,-46.1333,167.6833,44.82,94,100,3.91,moderate rain
310,Ribeira Grande,PT,38.5167,-28.7,75.6,78,20,12.66,few clouds
311,Ostersund,SE,63.1792,14.6357,53.62,100,90,24.16,mist
312,Vera Cruz,BR,-12.6333,-41.0333,90.75,27,40,8.28,scattered clouds
313,Tutoia,BR,-2.7619,-42.2744,91.38,63,92,16.69,overcast clouds
314,Akdepe,TM,42.0551,59.3788,51.89,41,0,10.89,clear sky
315,Kulebaki,RU,55.4133,42.5325,44.69,76,100,3.36,overcast clouds
316,Gamba,GA,-2.65,10.0,76.68,81,73,8.52,broken clouds
317,Babai,IN,22.7,77.9333,76.95,90,98,4.61,overcast clouds
318,Lavrentiya,RU,65.5833,-171.0,23.31,74,85,3.96,overcast clouds
319,Cedar City,US,37.6775,-113.0619,65.39,30,1,0.0,clear sky
320,Ponta Do Sol,PT,32.6667,-17.1,78.71,70,56,2.64,broken clouds
321,Tautira,PF,-17.7333,-149.15,75.22,76,13,8.16,light rain
322,Emba,KZ,48.8264,58.1442,47.77,65,61,7.72,broken clouds
323,Kharagpur,IN,22.3333,87.3333,78.73,91,63,6.76,broken clouds
324,Mucurapo,TT,10.6667,-61.5333,88.12,77,26,13.69,scattered clouds
325,San Cristobal,VE,7.7669,-72.225,80.78,55,97,6.58,overcast clouds
326,Sorland,NO,67.667,12.6934,57.27,82,100,29.84,light rain
327,Atambua,ID,-9.1061,124.8925,72.7,83,60,2.68,broken clouds
328,Aracati,BR,-4.5617,-37.7697,89.31,52,19,17.31,few clouds
329,Te Anau,NZ,-45.4167,167.7167,45.79,98,100,4.12,overcast clouds
330,Corralillo,CU,22.9819,-80.5856,84.85,66,50,14.99,scattered clouds
331,Druzhba,UA,52.0428,33.9453,47.39,74,28,6.91,scattered clouds
332,Nuevo Progreso,MX,23.1667,-97.95,86.59,75,37,5.99,scattered clouds
333,Majene,ID,-3.5403,118.9707,77.36,87,98,4.18,overcast clouds
334,Hualmay,PE,-11.0964,-77.6139,66.56,72,65,11.63,broken clouds
335,Port Hawkesbury,CA,45.6169,-61.3485,60.58,72,90,8.01,overcast clouds
336,Barra Do Garcas,BR,-15.89,-52.2567,103.12,22,23,12.44,few clouds
337,Namatanai,PG,-3.6667,152.4333,79.54,79,24,6.26,few clouds
338,Kamen-Rybolov,RU,44.7481,132.0403,54.68,71,100,4.74,overcast clouds
339,Muroto,JP,33.2833,134.15,73.63,73,0,9.64,clear sky
340,Ginda,IN,30.6945,78.4932,61.93,93,16,0.25,few clouds
341,Stornoway,GB,58.2093,-6.3865,53.92,87,75,13.8,broken clouds
342,Saint George,US,37.1041,-113.5841,84.67,25,1,1.99,clear sky
343,Dali,CN,25.7,100.1833,59.79,93,12,4.59,few clouds
344,Faanui,PF,-16.4833,-151.75,78.33,73,24,9.89,few clouds
345,Yelovo,RU,57.0538,54.9207,40.26,58,100,6.71,overcast clouds
346,Nova Olinda Do Norte,BR,-3.8881,-59.0942,96.6,38,79,4.27,broken clouds
347,Ushtobe,KZ,45.2514,77.9838,46.45,37,99,8.28,overcast clouds
348,Leh,IN,34.1667,77.5833,53.94,29,26,5.44,scattered clouds
349,Itaituba,BR,-4.2761,-55.9836,87.96,74,40,3.91,scattered clouds
350,Boa Vista,BR,2.8197,-60.6733,91.38,49,75,10.36,broken clouds
351,Nioro,GM,13.35,-15.75,90.52,55,37,4.72,scattered clouds
352,Varberg,SE,57.1056,12.2508,61.25,90,100,27.54,light rain
353,Riyadh,SA,24.6877,46.7219,93.34,10,77,7.47,broken clouds
354,La Palma,US,33.8464,-118.0467,93.96,39,20,1.01,few clouds
355,Tonekabon,IR,36.8163,50.8738,66.15,81,74,0.49,broken clouds
356,Presidencia Roque Saenz Pena,AR,-26.7852,-60.4388,63.07,53,100,12.91,overcast clouds
357,Alaca,TR,40.1683,34.8425,55.71,53,14,6.44,few clouds
358,Perelyub,RU,51.8667,50.3667,49.57,70,100,5.57,overcast clouds
359,Zacualtipan,MX,20.65,-98.6,69.24,62,23,4.85,few clouds
360,Souillac,MU,-20.5167,57.5167,72.36,88,75,12.66,broken clouds
361,Verkhnevilyuysk,RU,63.4453,120.3167,27.63,78,43,3.13,scattered clouds
362,Gongzhuling,CN,43.5008,124.8198,50.11,79,100,7.11,overcast clouds
363,Lethem,GY,3.3803,-59.7968,92.35,47,48,5.23,scattered clouds
364,Kimbe,PG,-5.5502,150.1429,75.67,90,95,3.69,overcast clouds
365,Fortuna,US,40.5982,-124.1573,52.14,49,53,3.83,broken clouds
366,Laguna De Duero,ES,41.5815,-4.7233,60.64,48,20,10.36,few clouds
367,Knysna,ZA,-34.0363,23.0471,57.58,80,15,5.44,light rain
368,Hay River,CA,60.8156,-115.7999,42.78,52,40,13.8,scattered clouds
369,Mount Gambier,AU,-37.8333,140.7667,49.91,93,75,9.22,broken clouds
370,Touros,BR,-5.1989,-35.4608,86.9,61,36,18.81,scattered clouds
371,Oxford,GB,51.7522,-1.256,58.95,76,20,1.99,few clouds
372,Kalawit,PH,8.0667,122.5167,77.47,90,100,8.55,heavy intensity rain
373,Berlevag,NO,70.8578,29.0864,50.0,77,92,30.82,overcast clouds
374,Chapais,CA,49.7834,-74.8492,53.38,55,12,5.5,few clouds
375,North Bend,US,43.4065,-124.2243,57.13,100,20,3.44,mist
376,Pendleton,US,45.6721,-118.7886,69.98,51,1,3.44,clear sky
377,Tabou,CI,4.423,-7.3528,79.93,80,100,7.47,overcast clouds
378,Bengkulu,ID,-3.8004,102.2655,76.08,91,86,5.3,overcast clouds
379,Kununurra,AU,-15.7667,128.7333,75.18,73,39,2.3,scattered clouds
380,Itapirapua,BR,-15.8233,-50.6133,101.25,23,15,10.85,few clouds
381,Kosh-Agach,RU,50.0,88.6667,16.0,66,60,3.44,broken clouds
382,Atar,MR,20.5169,-13.0499,105.24,4,22,9.91,few clouds
383,Alofi,NU,-19.0595,-169.9187,73.29,94,94,12.66,light rain
384,Cabedelo,BR,-6.9811,-34.8339,86.67,59,27,17.56,scattered clouds
385,Goderich,CA,43.7501,-81.7165,69.21,88,100,4.61,overcast clouds
386,Tual,ID,-5.6667,132.75,80.94,66,100,6.29,overcast clouds
387,Wahiawa,US,21.5028,-158.0236,72.46,88,56,5.7,broken clouds
388,Urzhum,RU,57.1141,49.9996,43.43,90,100,7.83,overcast clouds
389,Letka,RU,59.6011,49.4232,41.92,83,100,3.53,overcast clouds
390,San Quintin,MX,30.4833,-115.95,80.29,38,97,4.5,overcast clouds
391,Sharjah,AE,25.3573,55.4033,91.38,52,0,11.5,clear sky
392,Kirakira,SB,-10.4544,161.9205,79.05,85,86,0.58,overcast clouds
393,Jinka,ET,5.65,36.65,66.36,78,92,2.84,light rain
394,Grand Gaube,MU,-20.0064,57.6608,72.37,75,10,8.99,clear sky
395,Narsaq,GL,60.9167,-46.05,48.42,46,1,4.9,clear sky
396,North Platte,US,41.1239,-100.7654,71.33,52,1,1.99,clear sky
397,La Ronge,CA,55.1001,-105.2842,57.42,47,40,6.91,scattered clouds
398,Tiznit,MA,29.5833,-9.5,68.49,59,1,8.12,clear sky
399,Barranca,PE,-10.75,-77.7667,65.93,72,74,11.99,broken clouds
400,Bria,CF,6.5423,21.9863,71.96,90,22,3.38,light rain
401,Angoche,MZ,-16.2325,39.9086,78.55,75,5,19.66,clear sky
402,Padang,ID,-0.9492,100.3543,77.05,87,98,2.62,overcast clouds
403,Manakara,MG,-22.1333,48.0167,72.91,84,5,13.6,clear sky
404,Marzuq,YE,14.4,46.4667,77.22,60,69,8.61,broken clouds
405,Wagar,SD,16.1525,36.2032,96.28,28,51,7.05,broken clouds
406,Winchester,GB,51.0651,-1.3187,59.77,76,40,5.01,scattered clouds
407,Bansi,IN,27.1833,82.9333,77.63,88,72,6.8,broken clouds
408,Okhotsk,RU,59.3833,143.3,32.79,74,4,20.89,clear sky
409,Tshela,CD,-4.9833,12.9333,81.1,66,70,4.34,broken clouds
410,Sabang,ID,5.8933,95.3214,82.04,73,28,7.65,scattered clouds
411,Urumqi,CN,43.801,87.6005,41.95,65,0,2.24,clear sky
412,Tiksi,RU,71.6872,128.8694,24.75,92,74,11.43,broken clouds
413,Umm Kaddadah,SD,13.6017,26.6876,93.13,17,77,10.92,broken clouds
414,San Carlos De Bariloche,AR,-41.1456,-71.3082,47.95,43,20,24.16,few clouds
415,Muros,ES,42.7762,-9.0603,65.08,64,4,10.36,clear sky
416,Concordia,AR,-31.393,-58.0209,60.87,51,75,18.01,broken clouds
417,Phangnga,TH,8.4509,98.5298,86.92,91,93,2.57,overcast clouds
418,Shangqiu,CN,34.45,115.65,73.8,92,98,4.36,moderate rain
419,Zhezkazgan,KZ,47.8043,67.7144,46.74,73,100,10.0,overcast clouds
420,Taltal,CL,-25.4,-70.4833,64.78,63,4,9.17,clear sky
421,Isla Aguada,MX,18.7833,-91.4667,83.61,66,9,3.98,clear sky
422,Xinxiang,CN,35.3089,113.8672,70.72,93,100,11.54,light rain
423,Bacungan,PH,9.9106,118.7022,79.03,85,98,4.47,overcast clouds
424,Deputatskiy,RU,69.3,139.9,17.11,94,91,3.69,overcast clouds
425,Elizabeth City,US,36.2946,-76.2511,84.02,63,1,8.99,clear sky
426,Adrar,MR,20.5022,-10.0711,101.95,8,9,3.2,clear sky
427,Quatre Cocos,MU,-20.2078,57.7625,72.09,79,23,17.2,light rain
428,Jalu,LY,29.0331,21.5482,78.66,36,0,9.28,clear sky
429,Letterkenny,IE,54.95,-7.7333,55.33,83,76,12.24,broken clouds
430,Necochea,AR,-38.5473,-58.7368,53.04,55,6,23.42,clear sky
431,Catamarca,AR,-28.4696,-65.7852,64.58,39,70,7.56,broken clouds
432,Monywa,MM,22.1167,95.1333,79.7,81,10,5.66,clear sky
433,Encantado,BR,-29.2361,-51.8697,65.35,99,100,2.19,moderate rain
434,Port Macquarie,AU,-31.4333,152.9167,57.16,71,45,6.82,scattered clouds
435,Sibolga,ID,1.7427,98.7792,77.59,79,94,2.98,overcast clouds
436,Cherskiy,RU,68.75,161.3,17.53,97,99,4.12,light snow
437,Victoria Point,AU,-27.5833,153.3,66.49,91,1,4.85,clear sky
438,Shangrao,CN,28.4532,117.9686,72.16,75,0,4.05,clear sky
439,Lardos,GR,36.0942,28.0157,76.95,64,0,17.6,clear sky
440,Praia Da Vitoria,PT,38.7333,-27.0667,76.75,88,40,9.17,scattered clouds
441,Ayacucho,PE,-13.1583,-74.2239,71.46,24,75,5.75,broken clouds
442,Krasnyy Yar,RU,46.5331,48.3456,51.73,42,99,10.58,overcast clouds
443,Sao Joao Da Barra,BR,-21.6403,-41.0511,84.29,76,38,14.41,scattered clouds
444,Tarko-Sale,RU,64.9225,77.785,26.4,87,40,7.18,scattered clouds
445,Sao Joao Do Piaui,BR,-8.3581,-42.2467,100.81,20,18,8.16,few clouds
446,Husavik,IS,66.0449,-17.3389,46.31,92,96,13.85,overcast clouds
447,Kushima,JP,31.4583,131.2333,70.12,75,0,6.69,clear sky
448,Ucluelet,CA,48.9329,-125.5528,53.1,93,30,5.77,scattered clouds
449,Livanatai,GR,38.7167,23.05,65.95,59,25,5.55,scattered clouds
450,Makaryev,RU,57.8797,43.8069,44.8,85,100,2.26,overcast clouds
451,Homer,US,59.6425,-151.5483,38.8,71,1,0.0,clear sky
452,San Vicente,AR,-26.6167,-54.1333,70.45,81,99,5.3,light rain
453,Lixourion,GR,38.2019,20.4314,69.69,63,100,4.56,overcast clouds
454,Kailua,US,21.4022,-157.7394,75.74,78,75,13.94,broken clouds
455,Vardo,NO,70.3705,31.1107,50.2,76,0,16.11,clear sky
456,Hasaki,JP,35.7333,140.8333,63.28,82,0,6.24,clear sky
457,Mul,IN,20.0667,79.6667,77.68,87,81,3.15,broken clouds
458,Mahenge,TZ,-8.6833,36.7167,72.9,39,14,5.79,few clouds
459,Douentza,ML,14.9951,-2.9517,99.57,18,48,4.81,scattered clouds
460,Antsohihy,MG,-14.8796,47.9875,75.02,69,11,3.13,few clouds
461,Balkhash,KZ,46.844,74.9804,46.33,43,100,1.63,overcast clouds
462,Palu,ID,-0.8917,119.8707,75.7,96,100,3.38,overcast clouds
463,Pochutla,MX,15.7432,-96.4661,88.83,58,76,3.96,broken clouds
464,Gomel,BY,52.4345,30.9754,49.98,71,0,8.95,clear sky
465,Valle De Allende,MX,26.9333,-105.4,59.79,84,100,8.77,overcast clouds
466,Vrangel,RU,42.7297,133.0839,64.87,92,100,5.46,moderate rain
467,Oktyabrskoye,RU,43.0645,44.7417,48.34,93,90,6.71,mist
468,Kloulklubed,PW,7.0419,134.2556,81.1,79,100,7.25,overcast clouds
469,Jaque,PA,7.5175,-78.1703,83.25,75,57,5.57,light rain
470,Nara,JP,34.6851,135.8049,71.49,65,1,2.68,clear sky
471,Jagraon,IN,30.7833,75.4833,83.35,64,8,6.11,clear sky
472,Sinnamary,GF,5.3833,-52.95,85.82,66,11,7.29,few clouds
473,Bintulu,MY,3.1667,113.0333,75.61,100,40,5.99,scattered clouds
474,Marche-En-Famenne,BE,50.2,5.3333,54.12,95,100,8.3,overcast clouds
475,Norman Wells,CA,65.282,-126.8329,35.64,93,90,16.11,moderate rain
476,Middle Island,US,40.8843,-72.9373,78.26,67,1,5.01,clear sky
477,Marfino,RU,55.7028,37.3822,44.1,84,100,4.47,overcast clouds
478,Bambous Virieux,MU,-20.3428,57.7575,72.21,88,75,12.66,light rain
479,Lompoc,US,34.6391,-120.4579,92.12,45,1,0.0,clear sky
480,Morehead,US,37.2711,-87.1764,75.31,87,75,8.05,broken clouds
481,San Javier,ES,37.8063,-0.8374,87.39,56,0,8.01,clear sky
482,Miandrivazo,MG,-19.5167,45.4667,82.63,52,5,11.27,clear sky
483,Aripuana,BR,-9.1667,-60.6333,97.11,35,45,2.95,scattered clouds
484,Saldanha,ZA,-33.0117,17.9442,60.85,74,2,20.89,clear sky
485,Plastun,RU,44.7561,136.2939,56.66,90,99,5.55,overcast clouds
486,Hanstholm,DK,57.1167,8.6167,53.51,88,100,14.43,light rain
487,Chimbote,PE,-9.0853,-78.5783,68.36,71,85,10.69,overcast clouds
488,Aklavik,CA,68.2191,-135.0107,34.63,100,90,14.97,light intensity drizzle
489,Brusturoasa,RO,46.5167,26.2,48.33,76,51,1.68,broken clouds
490,Bridgeton,US,39.4273,-75.2341,83.05,51,1,1.99,clear sky
491,Kruisfontein,ZA,-34.0033,24.7314,55.89,70,32,9.86,scattered clouds
492,Svetlaya,RU,46.5389,138.3297,54.28,80,31,6.51,scattered clouds
493,Mykhaylivka,UA,47.2724,35.2224,55.67,42,100,11.01,overcast clouds
494,Pyshma,RU,56.9523,63.2513,34.23,67,98,7.61,overcast clouds
495,Loreto,MX,22.2667,-101.9667,63.32,67,99,9.69,overcast clouds
496,Moose Factory,CA,51.2585,-80.6094,57.2,67,1,8.05,clear sky
497,Olafsvik,IS,64.8945,-23.7142,41.97,90,100,32.17,overcast clouds
498,Carauari,BR,-4.8828,-66.8958,97.47,38,46,3.78,scattered clouds
499,Nacogdoches,US,31.6002,-94.6335,87.12,57,20,0.0,few clouds
500,Batemans Bay,AU,-35.7167,150.1833,55.9,93,34,5.68,scattered clouds
501,Havre-Saint-Pierre,CA,50.2334,-63.5986,53.96,66,90,6.91,overcast clouds
502,Guadalupe Y Calvo,MX,26.1,-106.9667,61.16,65,100,3.91,overcast clouds
503,Mumford,GH,5.2618,-0.759,79.74,83,83,11.79,broken clouds
504,Ayna,PE,-12.65,-73.9167,81.1,66,81,4.16,broken clouds
505,Saint Anthony,US,45.0205,-93.218,67.78,80,40,1.99,scattered clouds
506,Dawei,MM,14.0833,98.2,76.71,92,75,1.7,broken clouds
507,Bubaque,GW,11.2833,-15.8333,82.11,74,100,8.72,overcast clouds
508,Fukuma,JP,33.7667,130.4667,70.16,66,1,4.94,clear sky
509,Kijang,KR,35.2442,129.2139,69.53,80,43,8.32,scattered clouds
510,Karpathos,GR,35.507,27.2132,69.76,64,20,25.32,few clouds
511,Kpandu,GH,6.9954,0.2931,80.8,80,100,1.48,light rain
512,Carbonia,IT,39.1672,8.5222,77.95,67,42,8.41,scattered clouds
513,Saint-Augustin,CA,51.226,-58.6502,45.43,79,100,8.3,overcast clouds
514,Chissamba,AO,-12.1667,17.3333,80.42,18,13,1.1,few clouds
515,Yarmouth,US,41.7057,-70.2286,76.15,80,75,5.99,broken clouds
516,Belmonte,BR,-15.8631,-38.8828,84.7,66,23,13.18,few clouds
517,Mweka,CD,-4.85,21.5667,68.86,94,89,2.62,overcast clouds
518,Hovd,MN,48.0056,91.6419,34.47,34,2,3.56,clear sky
519,Sychevka,RU,55.8252,34.2736,43.54,80,100,5.66,light rain
520,Puerto Escondido,MX,15.85,-97.0667,86.04,66,56,5.14,broken clouds
521,Itoman,JP,26.1247,127.6694,82.42,65,20,9.22,few clouds
522,Egvekinot,RU,66.3167,-179.1667,24.44,97,100,2.91,light snow
523,Mossendjo,CG,-2.9506,12.7261,76.66,77,78,3.06,broken clouds
524,Seoul,KR,37.5683,126.9778,71.04,88,0,4.61,clear sky
525,Alvand,IR,36.3187,49.1678,53.87,73,10,4.18,clear sky
526,Batsfjord,NO,70.6345,29.7185,50.22,71,0,40.29,clear sky
527,Jinchang,CN,38.4953,102.1739,50.13,42,96,9.4,overcast clouds
528,Oyama,JP,36.3,139.8,75.58,77,45,2.51,scattered clouds
529,Esfarayen,IR,37.0765,57.5101,62.26,48,0,5.5,clear sky
530,Nyurba,RU,63.2842,118.3319,28.11,77,73,4.41,broken clouds
531,Wilmington,US,34.2257,-77.9447,83.95,57,1,5.75,clear sky
532,Mandera,KE,3.9366,41.867,93.34,31,23,10.31,few clouds
533,Koutsouras,GR,35.0339,25.9469,70.11,52,5,14.12,clear sky
534,Bogorodskoye,RU,56.55,37.8833,42.12,75,99,4.79,overcast clouds
535,Urusha,RU,54.05,122.9,28.13,77,10,3.0,clear sky
536,Bitung,ID,1.4451,125.1824,76.05,83,98,8.23,overcast clouds
537,Buchanan,LR,5.8808,-10.0467,85.96,77,64,7.23,light rain
538,Arlit,NE,18.7369,7.3853,96.42,10,0,3.38,clear sky
539,Qasigiannguit,GL,68.8193,-51.1922,25.81,69,68,2.08,broken clouds
540,Bathsheba,BB,13.2167,-59.5167,90.21,58,40,25.32,scattered clouds
541,Begichevskiy,RU,53.7961,38.255,44.04,67,13,5.99,few clouds
542,Kitgum,UG,3.2783,32.8867,69.17,89,52,4.38,light rain
543,Russell,US,32.3502,-85.1999,77.13,80,40,3.44,scattered clouds
544,Grindavik,IS,63.8424,-22.4338,48.15,81,75,23.02,broken clouds
545,Zhangjiakou,CN,40.81,114.8794,52.36,43,86,9.8,overcast clouds
546,Camana,PE,-16.6228,-72.7111,64.26,76,89,10.16,overcast clouds
547,Gat,IL,31.61,34.7642,77.68,68,40,8.68,scattered clouds
548,Atasu,KZ,48.6814,71.6433,43.56,87,100,14.54,overcast clouds
549,Nanortalik,GL,60.1432,-45.2371,40.91,71,0,3.87,clear sky
550,Beloha,MG,-25.1667,45.05,73.2,77,11,6.13,few clouds
551,Sorong,ID,-0.8833,131.25,76.55,89,100,9.51,overcast clouds
552,Aginskoye,RU,51.1,114.53,35.53,56,100,4.21,overcast clouds
553,Saint-Joseph,RE,-21.3667,55.6167,73.78,78,26,12.37,scattered clouds
554,Nisia Floresta,BR,-6.0911,-35.2086,88.18,52,30,16.02,scattered clouds
555,Nelson Bay,AU,-32.7167,152.15,64.69,82,60,8.88,broken clouds
556,Soanierana Ivongo,MG,-16.9167,49.5833,70.77,91,32,4.63,light rain
557,Marawi,PH,7.9986,124.2928,67.64,99,100,0.47,light rain
558,Labuhan,ID,-6.8844,112.2051,78.94,72,70,10.92,broken clouds
559,Sabha,LY,27.0377,14.4283,83.91,24,1,8.14,clear sky
560,Ulaanbaatar,MN,47.9077,106.8832,24.93,80,20,2.24,few clouds
561,Kita,ML,13.0349,-9.4895,89.44,54,27,1.61,scattered clouds
562,Aswan,EG,24.0934,32.907,92.5,19,0,13.8,clear sky
563,Mahibadhoo,MV,3.7833,72.9667,83.01,77,12,16.33,few clouds
564,Pangnirtung,CA,66.1451,-65.7125,33.8,93,40,0.0,fog
565,Nador,MA,35.174,-2.9287,80.67,68,20,13.8,few clouds
566,Aldan,RU,58.6031,125.3894,19.98,94,59,3.29,broken clouds
567,Ketchikan,US,55.3422,-131.6461,41.47,87,75,4.61,light rain
568,Merauke,ID,-8.4667,140.3333,76.15,88,97,3.47,overcast clouds
569,Wawa,NG,9.9022,4.4192,83.71,71,25,2.06,scattered clouds
570,Conway,US,35.0887,-92.4421,78.35,83,40,6.91,scattered clouds
571,Santa Isabel Do Rio Negro,BR,-0.4139,-65.0192,93.79,45,95,3.4,overcast clouds
572,Coachella,US,33.6803,-116.1739,95.11,20,35,2.55,scattered clouds
573,Bereznik,RU,62.8551,42.7072,43.18,93,100,3.83,overcast clouds
574,Yima,CN,34.7381,111.8839,69.49,94,85,1.95,light rain
575,Foz,ES,43.5692,-7.2544,65.93,66,10,8.86,clear sky
576,Aktau,KZ,43.65,51.2,55.98,31,97,18.16,overcast clouds
577,Taoudenni,ML,22.6783,-3.9836,106.75,6,53,5.84,broken clouds
578,Muzhi,RU,65.3667,64.6667,29.97,77,19,4.16,few clouds
579,Ust-Tsilma,RU,65.441,52.1498,38.8,94,100,4.36,overcast clouds
580,Asau,RO,46.4333,26.4,52.39,78,60,1.39,broken clouds
581,Oregon City,US,45.3573,-122.6068,61.32,77,1,1.01,clear sky
582,Dicamay,PH,16.7561,122.0037,73.15,97,94,1.19,overcast clouds
583,Cabo San Lucas,MX,22.8909,-109.9124,88.52,61,20,0.0,few clouds
584,Westport,US,41.1415,-73.3579,78.98,70,1,7.0,clear sky
585,Talisayan,PH,6.9872,121.9272,79.59,87,98,9.08,overcast clouds
586,Hienghene,NC,-20.6833,164.9333,70.95,91,11,4.56,few clouds
587,Lermontovka,RU,47.1453,134.3383,43.27,96,99,4.18,overcast clouds
588,Menongue,AO,-14.6585,17.691,78.62,13,8,5.03,clear sky
589,Lagos,NG,6.5833,3.75,80.62,80,56,5.88,broken clouds
590,Qaqortoq,GL,60.7167,-46.0333,46.04,50,2,7.87,clear sky
591,Christchurch,NZ,-43.5333,172.6333,53.91,85,75,1.99,light rain
592,Les Escoumins,CA,48.1111,-69.0236,45.75,74,99,6.2,overcast clouds
593,Kamaishi,JP,39.2667,141.8833,63.34,90,3,10.89,clear sky
594,Umm Lajj,SA,25.0213,37.2685,81.82,70,5,12.35,clear sky
595,Ustye,RU,59.6304,39.736,41.79,83,99,4.92,overcast clouds
596,Mendi,PG,-6.1761,143.6513,53.02,98,88,3.02,overcast clouds
597,Lodja,CD,-3.4833,23.4333,71.67,96,73,1.99,broken clouds
598,Zhangye,CN,38.9342,100.4517,49.12,33,90,4.85,overcast clouds
599,Svetlogorsk,BY,52.6333,29.7333,49.06,69,76,7.27,broken clouds
600,Tateyama,JP,34.9833,139.8667,70.02,78,4,7.27,clear sky
601,Candolim,IN,15.5181,73.7626,81.66,85,33,5.84,light rain
602,Broken Hill,AU,-31.95,141.4333,53.31,54,0,9.22,clear sky
603,San Luis,AR,-33.295,-66.3356,62.91,16,0,6.71,clear sky
604,Tolga,DZ,34.7222,5.3785,92.21,19,6,4.14,clear sky
605,Sinjar,IQ,36.3209,41.8754,80.4,29,0,12.73,clear sky
606,Tezu,IN,27.9167,96.1667,74.48,97,90,2.39,overcast clouds
607,Nago,JP,26.5881,127.9761,82.47,64,0,16.02,clear sky
608,Palmer,US,42.1584,-72.3287,73.47,64,90,0.0,overcast clouds
609,Prozor,BA,43.8222,17.6092,65.5,66,0,4.74,clear sky
610,Potiskum,NG,11.7091,11.0694,88.47,31,1,3.69,clear sky
611,Kenai,US,60.5544,-151.2583,38.14,85,90,0.0,overcast clouds
612,Lazaro Cardenas,MX,17.9583,-102.2,85.14,62,68,0.87,broken clouds
613,Pemba,MZ,-12.974,40.5178,79.5,73,20,15.99,few clouds
614,Zhigalovo,RU,54.8097,105.1578,33.12,87,100,1.95,overcast clouds
615,Khor,RU,47.8861,134.9464,42.42,92,99,6.35,overcast clouds
616,Nuevitas,CU,21.5453,-77.2644,85.35,64,92,9.57,overcast clouds
617,Naze,JP,28.3667,129.4833,77.56,62,0,18.95,clear sky
618,Sao Raimundo Das Mangabeiras,BR,-7.0219,-45.4811,93.34,34,61,6.49,broken clouds
619,Manoel Urbano,BR,-8.8389,-69.2597,98.87,32,18,3.67,few clouds
620,El Alto,PE,-4.2714,-81.2147,69.46,63,76,16.67,broken clouds
621,Garmsar,IR,35.2182,52.3409,76.41,32,0,4.65,clear sky
622,Sola,VU,-13.8833,167.55,79.21,78,39,5.1,scattered clouds
623,Salinas,US,36.6777,-121.6555,86.04,45,1,10.36,clear sky
624,Batagay-Alyta,RU,67.8006,130.4114,20.59,84,94,3.02,overcast clouds
625,San Jose,US,37.3394,-121.895,82.6,36,20,0.0,smoke
626,Swan River,CA,52.1058,-101.2676,58.89,47,84,3.44,broken clouds
627,Korla,CN,41.7597,86.1469,52.47,30,20,4.72,few clouds
628,Mamallapuram,IN,12.6264,80.1722,82.45,76,6,7.25,clear sky
629,Vanavara,RU,60.34,102.2797,33.84,91,100,4.56,overcast clouds
630,La Cruz,MX,23.9167,-106.9,85.62,64,85,2.35,overcast clouds
631,Kupino,RU,54.3663,77.2981,34.38,99,100,2.24,overcast clouds
632,Petropavlovsk-Kamchatskiy,RU,53.0452,158.6483,45.19,81,40,6.71,scattered clouds
633,Cambridge,CA,43.3601,-80.3127,68.97,98,90,3.44,light rain
634,Bitlis,TR,38.5,42.25,57.25,39,0,7.14,clear sky
635,Barpeta,IN,26.3167,91.0,80.69,91,31,1.41,scattered clouds
636,Palau,PW,7.503,134.621,80.56,89,75,3.44,broken clouds
637,Stephenville,US,32.2207,-98.2023,80.94,61,1,5.75,clear sky
638,Mount Isa,AU,-20.7333,139.5,78.57,22,7,4.61,light rain
639,Tahta,EG,26.7693,31.5021,84.52,29,0,14.58,clear sky
640,Gizo,SB,-8.103,156.8419,81.73,77,80,6.71,broken clouds
641,Lismore,AU,-28.8135,153.2773,59.7,80,18,8.05,few clouds
642,Kaeo,NZ,-35.1,173.7833,62.33,97,100,12.59,light rain
643,Bulgan,MN,48.8125,103.5347,31.21,88,5,0.92,clear sky
644,Gravdal,NO,68.1214,13.5031,55.08,78,100,30.18,overcast clouds
645,Beisfjord,NO,68.3751,17.5988,55.45,89,98,9.75,overcast clouds
646,Lopsmarka,NO,67.3134,14.4493,55.29,64,75,11.99,broken clouds
647,Rabaul,PG,-4.1967,152.1721,79.48,80,33,9.51,scattered clouds
648,Mrakovo,RU,52.7161,56.6244,36.41,92,40,5.79,scattered clouds
649,Laguna,US,38.421,-121.4238,80.44,47,1,0.0,clear sky
650,Moyo,UG,3.6609,31.7247,68.76,87,85,2.35,light rain
651,Geraldton,AU,-28.7667,114.6,46.81,93,0,3.44,clear sky
652,Lewiston,US,44.1003,-70.2148,56.75,98,90,3.44,overcast clouds
653,Eureka,US,40.8021,-124.1637,52.41,65,71,4.36,broken clouds
654,Ambilobe,MG,-13.2,49.05,73.18,73,12,2.95,few clouds
655,Turukhansk,RU,65.8167,87.9833,30.25,97,95,4.05,overcast clouds
656,Caibarien,CU,22.5206,-79.4669,83.43,71,20,14.61,few clouds
657,Kanchanaburi,TH,14.6333,99.1,75.45,92,91,2.95,moderate rain
658,Belaya Gora,RU,68.5333,146.4167,19.72,87,59,1.81,broken clouds
659,Ust-Ishim,RU,57.6935,71.1665,31.19,96,97,6.29,overcast clouds
660,Mandalgovi,MN,45.7625,106.2708,35.15,55,39,3.65,scattered clouds
661,Auki,SB,-8.7676,160.7034,76.44,88,31,2.15,scattered clouds
662,Fujieda,JP,34.8667,138.2667,71.87,88,6,4.09,clear sky
663,General Roca,AR,-39.0333,-67.5833,59.4,17,0,10.85,clear sky
664,Una,IN,20.8167,71.0333,79.52,83,34,7.87,scattered clouds
665,Kingisepp,RU,59.3733,28.6134,50.13,76,73,10.18,broken clouds
666,Nizhniy Novgorod,RU,56.3287,44.002,44.11,81,75,4.47,broken clouds
667,Baoqing,CN,46.3317,132.2111,45.32,93,61,6.33,broken clouds
668,Pontes E Lacerda,BR,-15.2261,-59.3353,100.87,26,39,8.9,scattered clouds
669,Luba,GQ,3.4568,8.5547,82.29,84,53,6.82,broken clouds
670,Garut,ID,-7.2024,107.8878,68.05,96,91,3.13,overcast clouds
671,Oyo,NG,7.85,3.9333,74.73,90,93,6.22,moderate rain
672,Litovko,RU,49.2361,135.1742,43.16,87,100,4.56,overcast clouds
673,Bhitarwar,IN,25.8,78.1167,82.44,71,11,7.61,few clouds
674,Kharp,RU,66.8014,65.8081,29.44,80,37,4.52,scattered clouds
675,Boyolangu,ID,-8.1181,111.8935,74.01,87,65,4.05,broken clouds
676,Tilichiki,RU,60.4667,166.1,37.62,95,100,16.53,moderate rain
677,Vryburg,ZA,-26.9566,24.7284,65.21,18,0,5.12,clear sky
678,Joetsu,JP,37.1483,138.2364,66.72,67,0,9.93,clear sky
679,Ranong,TH,9.9658,98.6348,78.15,85,39,3.18,scattered clouds
680,Tinskoy,RU,56.1525,96.9161,32.29,78,100,3.38,overcast clouds
681,Sistranda,NO,63.7256,8.834,63.9,83,100,12.08,light rain
682,Port Keats,AU,-14.25,129.55,78.78,86,98,7.65,overcast clouds
683,Saint-Michel-Des-Saints,CA,46.6834,-73.9159,56.93,49,1,4.03,clear sky
684,Altay,CN,47.8667,88.1167,32.72,48,47,4.36,scattered clouds
685,Kilis,TR,36.7161,37.115,75.43,48,25,9.55,scattered clouds
686,Embonas,GR,36.2269,27.8564,71.83,64,0,15.03,clear sky
687,Coos Bay,US,43.3665,-124.2179,56.23,100,20,3.44,mist
